city_id,state,city,lat,lng
0,NJ,Aberdeern,40.16706,-74.49987
1,NJ,Bellmawr,39.8676134,-75.0946183
2,NJ,Bernardsville,40.7186805,-74.5692273
3,NJ,Bordentown,40.1462213,-74.7118264
4,NJ,Bridgeton,39.427337,-75.2340768
5,NJ,Bridgewater,40.5598127,-74.5517146
6,NJ,Caldwell,40.8398218,-74.2765366
7,NJ,Camden,39.9448402,-75.1198911
8,NJ,Chatham,40.7409242,-74.3836711
9,NJ,Cherry Hill,39.9348351,-75.0307264
10,NJ,Chesterfield ,40.1153966,-74.6412727
11,NJ,Clifton,40.8584328,-74.1637553
12,NJ,Collingswood,39.9181686,-75.071284
13,NJ,Columbia,40.9262077,-75.0926763
14,NJ,Cranford,40.6584358,-74.2995923
15,NJ,Edison,40.5382375,-74.3945173
16,NJ,Fair Lawn,40.9397796,-74.1312504
17,NJ,Fairfield,40.2050878,-74.2135004
18,NJ,Fairview,40.8126006,-73.999028
19,NJ,Garfield,40.8814882,-74.113198
20,NJ,Garwood,40.6517692,-74.3229264
21,NJ,Hackensack,40.8871438,-74.0410865
22,NJ,Hamilton,40.2070573,-74.0812506
23,NJ,Hamilton Township,40.2041625,-74.6793244
24,NJ,Hardwick,41.054541,-74.9321157
25,NJ,Hardwick Township,41.0310306,-74.9351549
26,NJ,Hasbrouck Heights,40.8579293,-74.0816693
27,NJ,Hillsborough Township,40.498516,-74.6951625
28,NJ,Hoboken ,40.7433066,-74.0323752
29,NJ,Jersey City,40.7281575,-74.0776417
30,NJ,Lafayette,41.0984301,-74.6884965
31,NJ,Lawrence Township,40.2999815,-74.7190402
32,NJ,Lodi,40.8823215,-74.0831971
33,NJ,Lyndhurst,40.8120247,-74.1242816
34,NJ,Madison,40.7598227,-74.417097
35,NJ,Maplewood,40.7312123,-74.2734808
36,NJ,Matawan,40.41483,-74.2295891
37,NJ,Maywood,40.902599,-74.0618074
38,NJ,Merchantville,39.951634,-75.0487627
39,NJ,Metuchen,40.5431598,-74.3632049
40,NJ,Milltown,40.4562165,-74.4432073
41,NJ,Millville,39.4020593,-75.0393368
42,NJ,Milmay,39.4392825,-74.8568349
43,NJ,Monroe Township,40.3183284,-74.4202183
44,NJ,Montclair,40.8164458,-74.2210643
45,NJ,Mountainside,40.6723242,-74.3573722
46,NJ,New Brunswick,40.4862174,-74.4518173
47,NJ,Newark,40.735657,-74.1723667
48,NJ,Newfoundland,41.0464861,-74.4351546
49,NJ,Newton,41.0582103,-74.7530943
50,NJ,North Bergen,40.8042674,-74.012084
51,NJ,Nutley,40.8223223,-74.1598663
52,NJ,Old Bridge,40.399178,-74.3409036
53,NJ,Old Bridge Township,40.404546,-74.3099671
54,NJ,Palmyra,40.0070565,-75.0282271
55,NJ,Paramus,40.9452911,-74.0735899
56,NJ,Parlin,40.4620504,-74.3382037
57,NJ,Parsippany,40.8578772,-74.4259866
58,NJ,Pennsauken ,39.9562238,-75.0579502
59,NJ,Pennsauken Township,39.960107,-75.0490488
60,NJ,Piscataway,40.5462553,-74.4660408
61,NJ,Pittsgrove,39.528263,-75.131146
62,NJ,Princeton,40.3492744,-74.6592958
63,NJ,Rahway,40.6081591,-74.2776468
64,NJ,Ridgewood,40.9796683,-74.1194403
65,NJ,Robbinsville Twp,40.2238253,-74.5892843
66,NJ,Roselle,40.6503925,-74.2608833
67,NJ,Runnemede,39.8523358,-75.0679498
68,NJ,Rutherford,40.826489,-74.1068091
69,NJ,Secaucus,40.7899291,-74.0566735
70,NJ,Skillman,40.4201055,-74.7146049
71,NJ,Somerset,40.5012385,-74.4854775
72,NJ,South Amboy,40.4917725,-74.2832017
73,NJ,South Plainfield,40.5792701,-74.4115401
74,NJ,South River,40.446495,-74.3859831
75,NJ,Teaneck,40.8860164,-74.0072568
76,NJ,Titusville,40.3095516,-74.8804428
77,NJ,Trenton,40.2170575,-74.7429463
78,NJ,UNION CITY,40.7795455,-74.0237512
79,NJ,Union,40.6976019,-74.2632024
80,NJ,Vauxhall,40.586988,-74.351242
81,NJ,Vernon Township,41.1984287,-74.4832132
82,NJ,Voorhees,39.8512162,-74.9619779
83,NJ,Warren,40.8602222,-74.9720493
84,NJ,West Orange,40.7987113,-74.2390353
85,NJ,Willingboro,40.0278894,-74.8690542
86,NJ,Woodbridge,40.55418,-74.2860008
87,NJ,edison,40.5382375,-74.3945173
88,NY,Albany,42.6511674,-73.754968
89,NY,Amherst,42.9783924,-78.7997616
90,NY,Astoria,40.7720145,-73.9302673
91,NY,Ballston,43.017601,-73.8476809
92,NY,Ballston Lake,42.9117428,-73.8681782
93,NY,Bay Shore,40.742924,-73.2573104
94,NY,Binghamton,42.096968,-75.914341
95,NY,Bolton Landing,43.5572898,-73.6548408
96,NY,Brentwood,40.7856853,-73.2484545
97,NY,Bronxville,40.9381544,-73.8320784
98,NY,Brooklyn,40.6501038,-73.9495823
99,NY,Brooklyn ,40.6501038,-73.9495823
100,NY,Buffalo,42.8867166,-78.8783922
101,NY,Buffalo ,42.8867166,-78.8783922
102,NY,Clifton Park,42.8656325,-73.7709535
103,NY,Colonie,42.7178558,-73.8334554
104,NY,Deer Park,40.763594,-73.3241729
105,NY,Dobbs Ferry,41.0110045,-73.8714145
106,NY,Elmira,42.0897965,-76.8077338
107,NY,Fairport,43.0993,-77.443014
108,NY,Farmingdale,40.7356738,-73.4417524
109,NY,Glens Falls,43.309941,-73.644447
110,NY,Great River,40.7404732,-73.1699927
111,NY,Hastings-On-Hudson,40.9946622,-73.8785922
112,NY,Huntington,40.868154,-73.425676
113,NY,Islandia,40.8042649,-73.1690019
114,NY,Ithaca,42.4396039,-76.4968019
115,NY,Kingston,41.9287812,-74.0023702
116,NY,Lake Grove,40.8528761,-73.1151102
117,NY,Lake Ronkonkoma,40.8237106,-73.1075598
118,NY,Larchmont,40.9278769,-73.7517983
119,NY,Latham,42.7444055,-73.761563
120,NY,Lindenhurst,40.6867667,-73.3734547
121,NY,Malta,42.9711708,-73.792926
122,NY,Manhattan,40.7896239,-73.9598939
123,NY,Middletown,40.8397222,-73.8316667
124,NY,Mount Vernon,40.9125815,-73.8370786
125,NY,New Paltz,41.7464972,-74.0844894
126,NY,New York ,40.7127281,-74.0060152
127,NY,North White Plains,41.0512716,-73.7724782
128,NY,Nyack,41.091121,-73.9196794
129,NY,Online,40.6988321,-73.9946772
130,NY,Pittsford,43.090959,-77.515298
131,NY,Pleasant Valley,41.7445382,-73.8212439
132,NY,Pleasantville,41.1328736,-73.7926335
133,NY,Port Chester,41.0017643,-73.6656834
134,NY,Poughkeepsie,41.7065539,-73.9283672
135,NY,Queens,40.7498243,-73.7976337
136,NY,"Riverdale, Bronx",40.90056,-73.90639
137,NY,Rochester,43.157285,-77.615214
138,NY,Sands Point,40.8517669,-73.718742
139,NY,Saratoga Springs,43.0821793,-73.7853915
140,NY,Saugerties,42.0775906,-73.9529126
141,NY,Schenectady,42.8142432,-73.9395687
142,NY,Smithtown,40.8559314,-73.2006687
143,NY,Snyder,42.9636689,-78.7839218
144,NY,St James,40.8813312,-73.1511732
145,NY,Staten Island,40.5834557,-74.1496048
146,NY,Stony Brook,40.9087015,-73.1396036
147,NY,Syracuse,43.0481221,-76.1474244
148,NY,Tappan,41.0249745,-73.9506118
149,NY,Tonawanda,42.9935815,-78.8819044
150,NY,Troy,40.7402557,-74.0055355
151,NY,WHITESTONE,40.7945457,-73.8184674
152,NY,Wappingers Falls,41.5965635,-73.9112103
153,NY,West Babylon,40.7126585,-73.3536779
154,NY,Westchester County,41.1763139,-73.7907554
155,NY,White Plains,41.0339862,-73.7629097
156,NY,Williamsville,42.9637836,-78.7377258
157,NY,Yonkers,40.9312099,-73.8987469
158,PA,Allentown,40.6022059,-75.4712794
159,PA,Bala Cynwyd,40.0076125,-75.2340695
160,PA,Bensalem,40.1027615,-74.9321395
161,PA,Boyertown ,40.3337075,-75.6374083
162,PA,Bristol,40.1229002,-74.8644706
163,PA,Bucks County,40.3451668,-75.1263909
164,PA,Camp Hill,40.2398118,-76.9199742
165,PA,Catasauqua,40.6548191,-75.4746273
166,PA,Douglassville,40.2578714,-75.7263008
167,PA,East Stroudsburg,40.9995386,-75.1812913
168,PA,Erie,42.1294712,-80.0852695
169,PA,Fairless Hills,40.1795537,-74.8551644
170,PA,Glenside,40.1023326,-75.1521195
171,PA,Hanover,39.8063247,-76.9842735
172,PA,Harrisburg,40.2663107,-76.8861122
173,PA,Hellertown,40.5794426,-75.3405529
174,PA,Horsham,40.1842455,-75.1390524
175,PA,Johnstown,40.3267407,-78.9219698
176,PA,Kingston,41.2617481,-75.8968635
177,PA,Lancaster,40.03813,-76.3056686
178,PA,Langhorne,40.1745538,-74.9226665
179,PA,Lebanon,40.3429683,-76.4233816
180,PA,Leola,40.087875,-76.1849534
181,PA,Levittown ,40.1574174,-74.8322245
182,PA,Limerick,40.2309343,-75.5221245
183,PA,Morrisville,40.2114978,-74.7879399
184,PA,Munhall,40.3922914,-79.9000499
185,PA,Narberth,40.0084456,-75.26046
186,PA,Newtown,40.6529454,-76.345043
187,PA,North Versailles,40.3797913,-79.8094916
188,PA,Philadelphia ,39.9527237,-75.1635262
189,PA,Phoenixville,40.1303822,-75.5149128
190,PA,Pittsburgh,40.4416941,-79.9900861
191,PA,Pottstown,40.2452976,-75.6496424
192,PA,Richboro,40.229682,-74.9994889
193,PA,Spring City,40.176767,-75.5476803
194,PA,State College,40.7944504,-77.8616386
195,PA,Stevens,40.2162043,-76.1552256
196,PA,Stowe,40.2525952,-75.677409
197,PA,Stroudsburg,40.9864261,-75.1946649
198,PA,Verona,40.5064571,-79.843105
199,PA,West Pittston,41.3279106,-75.8007112
200,PA,Whitehall,40.657478,-75.5074646
201,PA,Wyomissing,40.329537,-75.9652117
202,PA,Yardley,40.245664,-74.8459972
203,PA,York,39.962398,-76.727392
204,PA,johnstown ,40.3267407,-78.9219698
